stop_name,parent_station,stop_id,stop_lat,stop_lon,location_type,platform_code
's-Hertogenbosch,,517842,51.69054,5.293723,1,
's-Hertogenbosch,517842,177543,51.69054,5.293723,,
Aachen Hbf,243728,263091,50.7678,6.091499,,
Aachen Süd(Gr),,372024,50.731915,6.04541,1,
Aachen Süd(Gr),372024,322060,50.731915,6.04541,,
"Aachen, Hauptbahnhof",,243728,50.767723,6.092051,1,
Aalen Hauptbahnhof,,383961,48.841602,10.096031,1,
Aalen Hbf,383961,569156,48.841015,10.096271,,
Altena(Westf),274534,219600,51.301983,7.668808,,
"Altena, Bahnhof",,274534,51.301983,7.66881,1,
Altenbeken,,650115,51.766434,8.943322,1,
Altenbeken,650115,140467,51.766434,8.943319,,
Amersfoort Centraal,,635527,52.153465,5.373909,1,
Amersfoort Centraal,635527,206166,52.153465,5.373909,,
Amsterdam Centraal,,589557,52.37919,4.899431,1,
Amsterdam Centraal,589557,232043,52.37919,4.899431,,
Amstetten NÖ,,394923,48.121605,14.878112,1,
Amstetten NÖ,394923,227189,48.121605,14.878112,,
Andernach,640936,429150,50.434544,7.404839,,
Andernach Bahnhof,,640936,50.434544,7.40484,1,
Angermünde,91016,412337,53.015793,13.995908,,3
Angermünde,91016,70496,53.01574,13.995672,,5
"Angermünde, Bahnhof",,91016,53.015823,13.995871,1,
Anklam,,71732,53.855984,13.701563,1,
Anklam,71732,308194,53.856102,13.701827,,
Ansbach,,14233,49.29803,10.578246,1,
Ansbach,14233,367550,49.29803,10.578239,,
Apeldoorn,,203417,52.20943,5.968491,1,
Apeldoorn,203417,399018,52.20943,5.968491,,
Apolda,,238298,51.03094,11.526136,1,
Apolda,238298,388040,51.03094,11.526136,,
Arnhem Centraal,,167761,51.98478,5.901003,1,
Arnhem Centraal,167761,213417,51.98478,5.901003,,
Arth-Goldau,,641555,47.049046,8.549446,1,
Arth-Goldau,641555,510948,47.049046,8.549446,,
Aschaffenburg Hbf,,6030,49.980556,9.1437,1,
Aschaffenburg Hbf,6030,154245,49.980556,9.143697,,
Attnang-Puchheim,,155997,48.012802,13.720719,1,
Attnang-Puchheim,155997,79071,48.012802,13.720719,,
Augsburg Hbf,,317051,48.36544,10.885569,1,
Augsburg Hbf,317051,424742,48.36544,10.88557,,
Augustfehn,,305023,53.220894,7.759622,1,
Augustfehn,305023,25905,53.220844,7.75963,,
Bad Bentheim,,84581,52.30985,7.158539,1,
Bad Bentheim,84581,197663,52.30985,7.158539,,
Bad Bentheim(Gr),,488857,52.3091,7.04016,1,
Bad Bentheim(Gr),488857,625420,52.3091,7.04016,,
Bad Bevensen,,563245,53.078247,10.574141,1,
Bad Bevensen,563245,130503,53.078274,10.574201,,
Bad Bevensen,563245,86230,53.07822,10.574081,,
Bad Endorf,,495194,47.904766,12.302122,1,
Bad Endorf,495194,67958,47.905067,12.301558,,
Bad Gastein,,453113,47.111774,13.131945,1,
Bad Gastein,453113,182896,47.111774,13.131945,,
Bad Hersfeld,,300589,50.869766,9.716581,1,
Bad Hersfeld,300589,231378,50.869766,9.716581,,
Bad Hofgastein,,82055,47.195713,13.100939,1,
Bad Hofgastein,82055,177011,47.195713,13.100939,,
Bad Kleinen,670772,320740,53.766975,11.466925,,
Bad Kleinen Bhf,,670772,53.76746,11.466429,1,
Bad Nauheim,614107,333588,50.367905,8.749334,,
Bad Nauheim Bahnhof,,614107,50.367798,8.748327,1,
Bad Oeynhausen,344830,494395,52.2054,8.796523,,
"Bad Oeynhausen, Bf/ZOB",,344830,52.2054,8.796519,1,
Bad Schandau,555052,602553,50.91929,14.137538,,
Bad Schandau Nationalparkbahnhof,,555052,50.91927,14.138099,1,
Bad Zwischenahn,,449396,53.182568,8.002996,1,
Bad Zwischenahn,449396,664077,53.18242,8.003398,,
Baden(CH),,336501,47.476425,8.307709,1,
Baden(CH),336501,232218,47.476425,8.307709,,
Baden-Baden,,207900,48.7902,8.191036,1,
Baden-Baden,207900,629463,48.790325,8.190831,,
Bamberg,,417729,49.90076,10.899484,1,
Bamberg,417729,479102,49.90076,10.899489,,
Basel Bad Bf,,496010,47.567287,7.607805,1,
Basel Bad Bf,496010,173925,47.567287,7.607805,,
Basel SBB,,84106,47.547405,7.589551,1,
Basel SBB,84106,252406,47.547405,7.589551,,
Bebra,,153374,50.969566,9.797788,1,
Bebra,153374,341048,50.969566,9.797788,,
Bellinzona,,359816,46.19543,9.029519,1,
Bellinzona,359816,152508,46.19543,9.029519,,
Bensheim,91573,99640,49.681328,8.616717,,
"Bensheim, Bahnhof",,91573,49.681805,8.616955,1,
Bergen Bahnhof,,259979,54.420822,13.418737,1,
Bergen auf Rügen,259979,472694,54.4205,13.417821,,
Berlin Gesundbrunnen,384600,241836,52.54869,13.390501,,7
Berlin Gesundbrunnen,384600,250548,52.548885,13.39039,,5
Berlin Gesundbrunnen,384600,427601,52.548794,13.3904,,6
Berlin Gesundbrunnen,384600,493360,52.548573,13.390519,,8
Berlin Gesundbrunnen,384600,495065,52.548485,13.390691,,9
Berlin Gesundbrunnen,384600,78456,52.548386,13.390704,,10
Berlin Hbf,648024,145596,52.525143,13.369612,,6
Berlin Hbf,648024,184148,52.52511,13.369472,,5
Berlin Hbf,648024,221961,52.525097,13.369321,,4
Berlin Hbf,648024,251792,52.52507,13.369501,,14
Berlin Hbf,648024,318289,52.52506,13.369167,,3
Berlin Hbf,648024,318729,52.52488,13.369627,,12
Berlin Hbf,648024,457137,52.524967,13.369527,,13
Berlin Hbf,648024,496172,52.524788,13.369667,,11
Berlin Hbf,648024,520645,52.52519,13.369752,,7
Berlin Hbf,648024,577524,52.52496,13.368911,,1
Berlin Hbf,648024,591516,52.524998,13.369061,,2
Berlin Hbf,648024,646903,52.525223,13.369887,,8
Berlin Ostbahnhof,160335,320217,52.510414,13.435172,,6
Berlin Ostbahnhof,160335,354732,52.510178,13.434942,,2
Berlin Ostbahnhof,160335,454680,52.510242,13.434586,,1
Berlin Ostbahnhof,160335,533858,52.510254,13.435024,,3
Berlin Ostbahnhof,160335,547268,52.510475,13.43524,,7
Berlin Ostkreuz,32005,122840,52.503067,13.469961,,14
Berlin Ostkreuz,32005,235767,52.502907,13.468553,,1
Berlin Ostkreuz,32005,296745,52.503128,13.469622,,13
Berlin Ostkreuz,32005,320489,52.50304,13.468615,,2
Berlin Zoologischer Garten,588307,279172,52.50768,13.332686,,3
Berlin Zoologischer Garten,588307,473352,52.50762,13.332927,,1
Berlin Zoologischer Garten,588307,501356,52.507717,13.332555,,4
Berlin Zoologischer Garten,588307,92150,52.507652,13.332804,,2
Berlin-Charlottenburg,586006,495796,52.504173,13.301819,,3
Berlin-Lichtenberg,352896,420325,52.510124,13.496304,,21
Berlin-Lichtenberg,352896,666710,52.510002,13.49649,,17
Berlin-Spandau,68468,448399,52.534542,13.197124,,5
Berlin-Spandau,68468,580236,52.534485,13.1971,,6
Berlin-Spandau,68468,588493,52.5346,13.197163,,4
Berlin-Spandau,68468,97018,52.534668,13.197191,,3
Berlin-Wannsee,672805,607437,52.42135,13.180446,,6
Berlin-Wannsee,672805,665694,52.421402,13.180358,,5
Bern,,256117,46.948833,7.439131,1,
Bern,256117,390644,46.948833,7.439131,,
Bernau(b Berlin),481520,103330,52.67533,13.592016,,5
Bernau(b Berlin),481520,79886,52.675426,13.591859,,4
Biberach ZOB/Bahnhof,,73459,48.101456,9.792795,1,
Biberach(Riß),73459,102778,48.101845,9.793127,,
Bielefeld Hbf,,679145,52.029263,8.53272,1,
Bielefeld Hbf,679145,268676,52.029263,8.532722,,
Bingen(Rhein) Hbf,69667,475011,49.968727,7.884263,,
"Bingen, Hauptbahnhof",,69667,49.96874,7.883543,1,
Binz (Ostseebad),,67969,54.404823,13.600502,1,
Bischofshofen,,243528,47.41786,13.219888,1,
Bischofshofen,243528,201455,47.41786,13.219888,,
Bitterfeld,,476119,51.62286,12.31685,1,
Bitterfeld,476119,237800,51.62286,12.31685,,
Bludenz,,170139,47.154724,9.814564,1,
Bludenz,170139,475082,47.154724,9.814564,,
Bochnia,,658840,49.9773,20.430775,1,
Bochnia,658840,364971,49.9773,20.430775,,
Bochum Hbf,,224257,51.479465,7.223335,1,
Bochum Hbf,224257,512134,51.478607,7.223275,,
Bohumin,,225621,49.90073,18.359444,1,
Bohumin,225621,144486,49.90073,18.359444,,
Bolzano/Bozen,,203318,46.496376,11.358791,1,
Bolzano/Bozen,203318,590074,46.496376,11.358791,,
Bondorf,,132313,48.52327,8.827879,1,
Bondorf(b Herrenberg),132313,355173,48.523552,8.827662,,
Bonn Hbf,,19614,50.732006,7.097131,1,
Bonn Hbf,19614,74501,50.73187,7.096987,,
Boppard Hauptbahnhof,,226468,50.231403,7.586084,1,
Boppard Hbf,226468,13095,50.231422,7.586014,,
Bratislava hl.st.,,370286,48.15891,17.106466,1,
Bratislava hl.st.,370286,442203,48.15891,17.106466,,
Braunschweig Hbf,35451,467546,52.252216,10.540295,,
"Braunschweig, Hauptbahnhof",,35451,52.252644,10.539547,1,
Breclav,,99109,48.7539,16.893236,1,
Breclav,99109,484106,48.7539,16.893236,,
Breclav(Gr),,632002,48.71265,16.86837,1,
Breclav(Gr),632002,7708,48.71265,16.86837,,
Bregenz,,408323,47.503002,9.739627,1,
Bregenz,408323,592188,47.503002,9.739627,,
Bregenz Riedenburg,,609051,47.49291,9.721313,1,
Bregenz Riedenburg,609051,191480,47.49291,9.721313,,
Bremen Hbf,,396407,53.083256,8.813857,1,
Bremen Hbf,396407,247821,53.082947,8.813447,,
Bremen Hbf,396407,350173,53.0835,8.81418,,
Bremen Hbf,396407,408472,53.08342,8.814067,,
Bremen Hbf,396407,527389,53.083275,8.813879,,
Bremen Hbf,396407,592828,53.083355,8.813982,,
Bremen Hbf,396407,594078,53.083073,8.813611,,
Bremen Hbf,396407,600413,53.083565,8.81426,,
Brennero/Brenner,,236843,47.002342,11.505426,1,
Brennero/Brenner,236843,262858,47.002342,11.505426,,
Bressanone/Brixen,,254040,46.709896,11.649764,1,
Bressanone/Brixen,254040,446857,46.709896,11.649764,,
Brig,,668404,46.319424,7.988095,1,
Brig,668404,41034,46.319424,7.988095,,
Brno hl.n.,,177113,49.19054,16.612774,1,
Brno hl.n.,177113,142850,49.19054,16.612774,,
Bruchsal,,438354,49.124924,8.590347,1,
Bruchsal,438354,179263,49.124622,8.589649,,
Brugg AG,,304543,47.48086,8.208845,1,
Brugg AG,304543,553740,47.48086,8.208845,,
Bruxelles Midi,,461529,50.835377,4.335694,1,
Bruxelles Midi,461529,351812,50.835377,4.335694,,
Bruxelles-Nord,,519142,50.860237,4.361454,1,
Bruxelles-Nord,519142,633808,50.860237,4.361454,,
Buchloe,,557175,48.033722,10.716219,1,
Buchloe,557175,406841,48.033722,10.716217,,
Buchs SG,,29858,47.16841,9.478637,1,
Buchs SG,29858,387425,47.16841,9.478637,,
Budapest-Kelenföld,,461621,47.464355,19.020456,1,
Budapest-Kelenföld,461621,19416,47.464355,19.020456,,
Budapest-Keleti,,340943,47.50038,19.085072,1,
Budapest-Keleti,340943,579559,47.50038,19.085072,,
Budapest-Nyugati,,263281,47.510708,19.057467,1,
Budapest-Nyugati,263281,247788,47.510708,19.057467,,
Bydgoszcz Glowna,,639055,53.135113,17.991636,1,
Bydgoszcz Glowna,639055,187029,53.135113,17.991636,,
Böblingen,,664223,48.687847,9.004533,1,
Böblingen,664223,34554,48.68776,9.004128,,
Bünde(Westf),470965,398518,52.202076,8.573876,,
"Bünde, Bahnhof / ZOB",,470965,52.202076,8.573871,1,
Bützow,106167,369834,53.837112,11.998194,,
Bützow Bahnhof,,106167,53.837006,11.997513,1,
Celle,437662,401494,52.620457,10.062468,,
Celle Bahnhof,,437662,52.62075,10.064787,1,
Chemnitz Hbf,421492,302442,50.839695,12.930877,,
"Chemnitz, Hauptbahnhof",,421492,50.83963,12.930692,1,
Chiasso,,59217,45.83217,9.03145,1,
Chiasso,59217,164198,45.83217,9.03145,,
Chur,,609752,46.853085,9.528938,1,
Chur,609752,64037,46.853085,9.528938,,
Coburg,,448115,50.262924,10.957326,1,
Coburg,448115,665853,50.262928,10.957328,,
Como S. Giovanni,,459215,45.80897,9.072714,1,
Como S. Giovanni,459215,20194,45.80897,9.072714,,
Cottbus Hbf,373027,642295,51.750957,14.324162,,
"Cottbus, Hauptbahnhof",,373027,51.750984,14.324464,1,
Crailsheim,114836,199126,49.13787,10.064326,,
Crailsheim Bahnhof,,114836,49.137913,10.06432,1,
Czechowice-Dziedzice,,344151,49.915104,19.00465,1,
Czechowice-Dziedzice,344151,103976,49.915104,19.00465,,
D-Flughafen Bf,,173436,51.292088,6.786979,1,
Dagebüll Kirche,,636155,54.73058,8.729632,1,
Dagebüll Kirche,636155,407930,54.73028,8.729485,,
Dagebüll Mole,,297358,54.73011,8.690239,1,
Dagebüll Mole,297358,533533,54.729908,8.690989,,
Darmstadt Hauptbahnhof,,346827,49.87194,8.631148,1,
Darmstadt Hbf,346827,679402,49.8725,8.629636,,
Debica,,655066,50.054417,21.405565,1,
Debica,655066,249186,50.054417,21.405565,,
Decin hl.n.,,434188,50.773193,14.200972,1,
Decin hl.n.,434188,377084,50.773415,14.201247,,
Deezbüll,,361295,54.77697,8.818274,1,
Deezbüll,361295,219065,54.77697,8.818274,,
Delmenhorst,,454523,53.05278,8.629879,1,
Delmenhorst,454523,207218,53.05279,8.629758,,
Dessau Hbf,,177525,51.839867,12.234945,1,
Dessau Hbf,177525,282157,51.839867,12.234945,,
Deventer,,503766,52.257435,6.160506,1,
Deventer,503766,344715,52.257435,6.160506,,
Diepholz,,636899,52.6046,8.380249,1,
Diepholz,636899,634329,52.6046,8.380267,,
Diepholz,636899,644164,52.604637,8.38013,,
Dillenburg,400229,78710,50.734943,8.294621,,
Dillenburg Bahnhof,,400229,50.734905,8.294586,1,
Doberlug-Kirchhain,495241,214615,51.620533,13.564268,,2
Doberlug-Kirchhain,495241,414292,51.62053,13.564161,,1
"Doberlug-Kirchhain, Bahnhof",,495241,51.62061,13.564187,1,
Dobova,,613612,45.89839,15.655178,1,
Dobova,613612,435541,45.89839,15.655178,,
Dobova(Gr),,387731,45.890633,15.680238,1,
Dobova(Gr),387731,329366,45.890633,15.680238,,
Donaueschingen,537567,133477,47.9479,8.498788,,
Donaueschingen Bahnhof,,537567,47.94753,8.499428,1,
Donauwörth,,70572,48.714024,10.771447,1,
Donauwörth,70572,49717,48.714027,10.771443,,
Dorfgastein,,510622,47.23867,13.103062,1,
Dorfgastein,510622,394241,47.23867,13.103062,,
Dornbirn,,375415,47.41769,9.738808,1,
Dornbirn,375415,95332,47.41769,9.738808,,
Dortmund Hbf,,405986,51.51689,7.459592,1,
Dortmund Hbf,405986,558386,51.517895,7.45929,,
Dresden Bahnhof Neustadt,,617863,51.065426,13.740882,1,
Dresden Hauptbahnhof,,521029,51.03993,13.732932,1,
Dresden Hbf,521029,503210,51.04056,13.732035,,
Dresden-Neustadt,617863,379566,51.0659,13.740701,,
Duisburg Hbf,,65011,51.430798,6.7766356,1,
Duisburg Hbf,65011,547164,51.429787,6.775903,,
Döbeln Hbf,167591,429531,51.126568,13.094988,,
"Döbeln, Hauptbahnhof",,167591,51.126686,13.09564,1,
Düren,,33409,50.809517,6.482451,1,
Düren,33409,20647,50.809517,6.482451,,
Düsseldorf Flughafen,173436,359390,51.292007,6.786836,,
Düsseldorf Hbf,,14255,51.220253,6.792997,1,
Düsseldorf Hbf,14255,216416,51.219963,6.794319,,
Eberswalde Hbf,657296,183716,52.833805,13.796755,,4
Eberswalde Hbf,657296,417912,52.83376,13.796866,,3
"Eberswalde, Hauptbahnhof",,657296,52.833683,13.79695,1,
Eindhoven Centraal,,268219,51.44302,5.479576,1,
Eindhoven Centraal,268219,460402,51.44302,5.479576,,
Eisenach Hbf,450489,428897,50.975952,10.331229,,
"Eisenach, Hbf",,450489,50.976894,10.331974,1,
Ellwangen,603091,123304,48.964123,10.129681,,
Ellwangen Bahnhof,,603091,48.964535,10.129762,1,
Elsterwerda,442900,343474,51.45942,13.516226,,3
Elsterwerda,442900,351657,51.46012,13.51666,,1
Elsterwerda,442900,427271,51.459404,13.516305,,2
"Elsterwerda, Bahnhof",,442900,51.459805,13.516412,1,
Emden Außenhafen,48800,510198,53.344498,7.186394,,
Emden Hbf,30370,537881,53.36933,7.195423,,
Emden(Ostfriesl) Außenhafen,,48800,53.344498,7.186394,1,
Emden(Ostfriesl) Hbf,,30370,53.36925,7.195502,1,
Emmerich(Gr),,333060,51.901196,6.137652,1,
Emmerich(Gr),333060,490034,51.901196,6.137652,,
Engen,327061,371931,47.856346,8.772786,,
Engen Bahnhof,,327061,47.856007,8.772561,1,
"Erfurt, Hauptbahnhof",,28515,50.972057,11.037305,1,
Ergenzingen,611634,129661,48.489532,8.809857,,
Ergenzingen Bahnhof,,611634,48.489594,8.809949,1,
Erkelenz,,679699,51.076595,6.321634,1,
Erkelenz,679699,522324,51.076595,6.321634,,
Erlangen,,50237,49.595825,11.00164,1,
Erlangen,50237,137561,49.59583,11.001638,,
Essen Hbf,,495334,51.449734,7.012213,1,
Essen Hbf,495334,164955,51.451355,7.014793,,
Eutingen im Gäu,74016,269873,48.479954,8.782236,,
Eutingen im Gäu Bahnhof,,74016,48.47957,8.781643,1,
Feldkirch,,202615,47.24098,9.604102,1,
Feldkirch,202615,453315,47.24098,9.604102,,
Finnentrop,657116,225291,51.173046,7.964563,,
Finnentrop Bf,,657116,51.173046,7.964562,1,
Fischen,,209229,47.456596,10.271723,1,
Fischen,209229,309697,47.456593,10.271717,,
Flensburg,,229646,54.774048,9.436687,1,
Flensburg,229646,441949,54.773857,9.436511,,
Flensburg,229646,520214,54.774227,9.436848,,
Flensburg,229646,69403,54.77395,9.436603,,
Flensburg [Grenze],,281919,54.814842,9.36324,1,
Flensburg(Gr),281919,187233,54.814842,9.36324,,
Flughafen Köln/Bonn Bf,,106138,50.878902,7.119301,1,
Flughafen Wien,,546096,48.120903,16.56307,1,
Flughafen Wien,546096,177859,48.120903,16.56307,,
Forbach(F),,359685,49.189217,6.900258,1,
Forbach(F),359685,134641,49.189217,6.900258,,
Forbach(fr),,579049,49.21409,6.944314,1,
Forbach(fr),579049,579969,49.21409,6.944314,,
Frankfurt (Main) Flughafen Fernbahnhof,,204868,50.052914,8.569788,1,
Frankfurt (Main) Flughafen Regionalbahnhof,,75965,50.0512,8.571423,1,
Frankfurt (Main) Hauptbahnhof,,564624,50.107155,8.663759,1,
Frankfurt (Main) Niederrad Bahnhof,,641060,50.08078,8.63709,1,
Frankfurt (Main) Südbahnhof,,497071,50.099327,8.686442,1,
Frankfurt (Main) Westbahnhof,,455081,50.119446,8.639455,1,
"Frankfurt (Oder), Bahnhof",,517067,52.336708,14.547147,1,
Frankfurt(M) Flughafen Fernbf,204868,548022,50.053165,8.570185,,
Frankfurt(M) Flughafen Regionalbf,75965,469107,50.05122,8.571251,,
Frankfurt(Main)Hbf,564624,60237,50.10668,8.662828,,
Frankfurt(Main)Süd,497071,147325,50.099365,8.686457,,
Frankfurt(Main)West,455081,210930,50.1193,8.639395,,
Frankfurt(Oder),517067,298177,52.336605,14.546146,,10
Frankfurt(Oder),517067,345696,52.336643,14.54624,,9
Frankfurt(Oder),517067,38597,52.336563,14.545988,,11
Frankfurt(Oder)(Gr),,50163,52.321175,14.576403,1,
Frankfurt(Oder)(Gr),50163,206931,52.321175,14.576403,,
Frankfurt-Niederrad,641060,278673,50.080997,8.637013,,
Freiberg(Sachs),245897,442971,50.908726,13.344141,,
"Freiberg, Bahnhof",,245897,50.90936,13.342219,1,
Freiburg Hauptbahnhof,,504755,47.996616,7.840442,1,
Freiburg(Breisgau) Hbf,504755,184213,47.997696,7.84117,,
Freilassing,,415171,47.836914,12.977197,1,
Freilassing,415171,148780,47.836918,12.977193,,
Frick,,242658,47.507347,8.013092,1,
Frick,242658,313385,47.507347,8.013092,,
Friedberg (Hessen) Bahnhof,,268720,50.332745,8.761246,1,
Friedberg(Hess),268720,292072,50.332607,8.762056,,
Friedrichsh. Stadtbahnhof,,152178,47.653057,9.473426,1,
Friedrichshafen Stadt,152178,251911,47.653225,9.4739,,
Fulda,202631,340657,50.554905,9.684169,,
Fulda Bahnhof,,202631,50.55492,9.683761,1,
"GD, Bahnhof",,606450,48.800285,9.787118,1,
Garmisch-Partenkirchen,,216589,47.491455,11.097014,1,
Garmisch-Partenkirchen,216589,85597,47.49145,11.097013,,
Gdansk Glowny,,321239,54.35552,18.643803,1,
Gdansk Glowny,321239,496800,54.35552,18.643803,,
Gdansk Oliwa,,322465,54.409893,18.571741,1,
Gdansk Oliwa,322465,72284,54.409893,18.571741,,
Gdansk Wrzeszcz,,500460,54.38186,18.605434,1,
Gdansk Wrzeszcz,500460,455343,54.38186,18.605434,,
Gdynia Glowna,,668414,54.52084,18.529556,1,
Gdynia Glowna,668414,377576,54.52084,18.529556,,
Geilenkirchen,,566896,50.96104,6.124518,1,
Geilenkirchen,566896,606717,50.96104,6.124518,,
Gelsenkirchen Hbf,,92499,51.504925,7.102206,1,
Gelsenkirchen Hbf,92499,71219,51.5049,7.102455,,
Gera Hbf,,365122,50.88342,12.077098,1,
Gera Hbf,365122,21900,50.883423,12.077092,,
Gießen,349250,382695,50.57906,8.661462,,
Gießen Bahnhof,,349250,50.579884,8.663799,1,
Gliwice,,281536,50.301105,18.677158,1,
Gliwice,281536,597285,50.301105,18.677158,,
Glogow,,235264,51.668957,16.079712,1,
Glogow,235264,509892,51.668957,16.079712,,
Gniezno,,565120,52.52965,17.602184,1,
Gniezno,565120,320291,52.52965,17.602184,,
Golling-Abtenau,,499452,47.60081,13.164054,1,
Golling-Abtenau,499452,277380,47.60081,13.164054,,
Gotha,,83509,50.93905,10.712328,1,
Gotha,83509,505531,50.93907,10.712568,,
Graz Hbf,,232005,47.072296,15.416437,1,
Graz Hbf,232005,382122,47.072296,15.416437,,
Greifswald,,224756,54.092926,13.370264,1,
Greifswald,224756,273177,54.092922,13.370262,,
Györ,,502982,47.68198,17.63479,1,
Györ,502982,117426,47.68198,17.63479,,
Gäufelden,,42612,48.559715,8.850103,1,
Gäufelden,42612,387097,48.55966,8.850308,,
Göppingen,,561167,48.70012,9.652344,1,
Göppingen,561167,142574,48.700027,9.651969,,
Göttingen,,131409,51.53672,9.925875,1,
Göttingen,131409,172780,51.536865,9.92561,,
Göttingen,131409,173303,51.536682,9.926424,,
Göttingen,131409,462891,51.53674,9.925647,,
Göttingen,131409,650666,51.53667,9.925681,,
Göttingen,131409,7222,51.53698,9.925599,,
Günzburg,,299339,48.460564,10.27926,1,
Günzburg,299339,425661,48.460564,10.279262,,
Gütersloh Hbf,331822,573997,51.90694,8.385071,,
"Gütersloh, Hbf/ZOB",,331822,51.906944,8.385072,1,
HER Wanne-Eickel Hbf,,62576,51.531254,7.16578,1,
Hagen Hbf,,285627,51.361965,7.461802,1,
Hagen Hbf,285627,48408,51.362747,7.460249,,
Halle(Saale)Hbf,,249613,51.47751,11.987085,1,
Halle(Saale)Hbf,249613,595190,51.47751,11.987085,,
Hallein,,232596,47.68517,13.099434,1,
Hallein,232596,642076,47.68517,13.099434,,
Hamburg Dammtor,352174,337002,53.560757,9.989569,,
Hamburg Hbf,466867,542304,53.55274,10.006905,,
"Hamburg, Hamburg Dammtor",,352174,53.560783,9.989403,1,
"Hamburg, Hamburg Hbf",,466867,53.552753,10.007925,1,
"Hamburg, Hamburg-Altona",,491609,53.55325,9.935405,1,
"Hamburg, Hamburg-Harburg",,234910,53.456375,9.990947,1,
Hamburg-Altona(S),491609,278798,53.552692,9.935181,,
Hamburg-Harburg(S),234910,146046,53.455902,9.991704,,
"Hamm (Westf), Hauptbahnhof",,182541,51.678078,7.807824,1,
Hamm(Westf)Hbf,182541,587107,51.678078,7.807821,,
Hanau Hauptbahnhof,,75644,50.121346,8.928415,1,
Hanau Hbf,75644,499337,50.120953,8.929,,
Hannover Hauptbahnhof,,115474,52.37649,9.74107,1,
Hannover Hbf,115474,479363,52.376762,9.741021,,
Hannover Messe / Laatzen,,23897,52.317486,9.792149,1,
Hannover Messe/Laatzen,23897,567827,52.3169,9.792863,,
Hauptbahnhof,28515,456384,50.97211,11.037261,,
Hauptbahnhof (oben),,40629,48.784878,9.182794,1,
Hauptbahnhof A1,461722,301557,54.315235,10.131234,,
Hegyeshalom,,252768,47.913975,17.145296,1,
Hegyeshalom,252768,472381,47.913975,17.145296,,
Hegyeshalom(Gr),,312987,47.93826,17.095844,1,
Hegyeshalom(Gr),312987,644618,47.93826,17.095844,,
Heide(Holst),,448506,54.192932,9.101242,1,
Heide(Holst),448506,456396,54.19306,9.101122,,
Heide(Holst),448506,502917,54.19317,9.100833,,
Heidelberg Hbf,365567,441251,49.40357,8.675442,,
"Heidelberg, Hauptbahnhof",,365567,49.404316,8.676243,1,
Helmstedt,355907,298083,52.222088,11.010553,,
"Helmstedt, Bahnhof",,355907,52.22207,11.010093,1,
Hengelo,,55238,52.261852,6.793726,1,
Hengelo,55238,382963,52.261852,6.793726,,
Herford,205737,532951,52.11961,8.663643,,
"Herford, Bahnhof",,205737,52.11961,8.66364,1,
Hermsdorf-Klosterlausnitz,,246699,50.90385,11.858619,1,
Hermsdorf-Klosterlausnitz,246699,264453,50.903778,11.858626,,
Herrenberg,,563976,48.593956,8.862626,1,
Herrenberg,563976,529491,48.59399,8.862662,,
Herzogenrath,,185261,50.870914,6.094486,1,
Herzogenrath,185261,379038,50.870914,6.094486,,
Hildesheim Hauptbahnhof,,288924,52.159668,9.952588,1,
Hildesheim Hbf,288924,32935,52.160625,9.953497,,
Hilversum,,54320,52.22667,5.181399,1,
Hilversum,54320,407004,52.22667,5.181399,,
Hohenems,,248275,47.364708,9.681001,1,
Hohenems,248275,625992,47.364708,9.681001,,
Homburg (Saar) Hbf,,211342,49.32808,7.337035,1,
Homburg(Saar)Hbf,211342,127249,49.327637,7.336362,,5
Homburg(Saar)Hbf,211342,28365,49.328083,7.337035,,
Homburg(Saar)Hbf,211342,574659,49.327606,7.336528,,4
Horb,456901,341500,48.44147,8.688982,,
Horb Bahnhof/ZOB,,456901,48.441853,8.688892,1,
Hude,154705,567159,53.10937,8.461016,,
Hude(Oldb),,154705,53.10937,8.460953,1,
Husum,,265455,54.472015,9.056272,1,
Husum,265455,379595,54.472088,9.055957,,
Immenstadt,,47056,47.559204,10.213997,1,
Immenstadt,47056,476196,47.559204,10.213999,,
Ingolstadt Hbf,,104278,48.74455,11.437341,1,
Ingolstadt Hbf,104278,299892,48.74454,11.437337,,
Innsbruck Hauptbahnhof,,249643,47.263233,11.401031,1,
Innsbruck Hbf,249643,670300,47.263237,11.401028,,
Inowroclaw,,222836,52.804947,18.24406,1,
Inowroclaw,222836,537496,52.804947,18.24406,,
Interlaken Ost,,373039,46.6905,7.869,1,
Interlaken Ost,373039,620269,46.6905,7.869,,
Interlaken West,,645434,46.68263,7.851453,1,
Interlaken West,645434,289882,46.68263,7.851453,,
"Iserl., Letmathe Bf",,640590,51.362835,7.618396,1,
Itzehoe,,142092,53.92408,9.510151,1,
Itzehoe,142092,449992,53.923794,9.510167,,
Jaroslaw,,344868,50.01067,22.677896,1,
Jaroslaw,344868,182293,50.01067,22.677896,,
Jena Paradies,,680067,50.924854,11.587468,1,
Jena Paradies,680067,348159,50.924854,11.587461,,
Jena West,,134447,50.923286,11.57785,1,
Jena West,134447,158611,50.923286,11.577848,,
Jena-Göschwitz,,124666,50.8838,11.593217,1,
Jena-Göschwitz,124666,526200,50.88394,11.593537,,
Jenbach,,145085,47.388447,11.778454,1,
Jenbach,145085,399863,47.388447,11.778454,,
Jesenice(Gr),,538260,46.48141,14.020333,1,
Jesenice(Gr),538260,276551,46.48141,14.020333,,
Jesenice(SL),,291829,46.436325,14.054913,1,
Jesenice(SL),291829,397634,46.436325,14.054913,,
Kaiserslautern Hbf,77363,105990,49.43586,7.768627,,
"Kaiserslautern, Hbf",,77363,49.436264,7.768253,1,
Karlsruhe Hauptbahnhof,,563317,48.993347,8.401036,1,
Karlsruhe Hbf,563317,583133,48.993515,8.402181,,
Karlsruhe-Durlach,,153623,49.00225,8.462759,1,
Karlsruhe-Durlach,153623,563870,49.002327,8.462822,,
Kassel Bahnhof Wilhelmshöhe,,504280,51.31313,9.44705,1,
Kassel-Wilhelmshöhe,504280,359182,51.312435,9.448181,,
Katowice,,209677,50.257515,19.017164,1,
Katowice,209677,190928,50.257515,19.017164,,
Kedzierzyn Kozle,,115616,50.34436,18.204765,1,
Kedzierzyn Kozle,115616,656691,50.34436,18.204765,,
Kehl,314780,97138,48.576656,7.806556,,
Kehl Bahnhof,,314780,48.57667,7.806818,1,
Kehl(Gr),,363187,48.575645,7.801118,1,
Kehl(Gr),363187,260770,48.575645,7.801118,,
Kempten (Allgäu) Hbf,,615000,47.711746,10.317618,1,
Kempten(Allgäu)Hbf,615000,673816,47.711746,10.31761,,
Kiel Hauptbahnhof,,461722,54.315582,10.131145,1,
Klagenfurt Hbf,,448214,46.615585,14.313569,1,
Klagenfurt Hbf,448214,641934,46.615585,14.313569,,
Koblenz Hauptbahnhof,,271434,50.350925,7.588339,1,
Koblenz Hbf,271434,382847,50.35093,7.588345,,
Koebenhavn H,,443308,55.67272,12.564617,1,
Koebenhavn H,443308,136081,55.67272,12.564617,,
Koebenhavn Syd,,362992,55.65242,12.516317,1,
Koebenhavn Syd,362992,466993,55.65242,12.516317,,
Koege Nord St.,,475811,55.499557,12.173244,1,
Koege Nord St.,475811,373389,55.499557,12.173244,,
Kolding st,,292304,55.49084,9.481528,1,
Kolding st,292304,219537,55.49084,9.481528,,
Kolin(CZ),,119779,50.025436,15.214279,1,
Kolin(CZ),119779,328390,50.025436,15.214279,,
Konin,,468236,52.231396,18.253336,1,
Konin,468236,527832,52.231396,18.253336,,
Konstanz,634258,296217,47.658752,9.177312,,
Konstanz Bahnhof,,634258,47.658794,9.17727,1,
Krakow Glowny,,625441,50.067196,19.947426,1,
Krakow Glowny,625441,145316,50.067196,19.947426,,
Krakow Plaszow,,630340,50.03509,19.974894,1,
Krakow Plaszow,630340,84582,50.03509,19.974894,,
Kranj,,17363,46.23901,14.348167,1,
Kranj,17363,557763,46.23901,14.348167,,
Krefeld Hbf,,624093,51.325623,6.568194,1,
Krefeld Hbf,624093,631075,51.325718,6.569885,,
Kreuztal,448673,510701,50.956028,7.991696,,
Kreuztal Bf,,448673,50.956024,7.991691,1,
Kronach,,415134,50.23961,11.320111,1,
Kronach,415134,510595,50.239613,11.320115,,
Krsko,,482861,45.95624,15.493454,1,
Krsko,482861,93121,45.95624,15.493454,,
Krumpendorf/Wörthersee,,670148,46.62633,14.221512,1,
Krumpendorf/Wörthersee,670148,607138,46.62633,14.221512,,
Kufstein,,487669,47.58308,12.16555,1,
Kufstein,487669,453885,47.58308,12.16555,,
Kutno,,503981,52.226963,19.348616,1,
Kutno,503981,384261,52.226963,19.348616,,
Kuty,,350921,48.661892,17.047695,1,
Kuty,350921,482393,48.661892,17.047695,,
Kuty(Gr),,367464,48.71108,17.000406,1,
Kuty(Gr),367464,95133,48.71108,17.000406,,
Köln Ehrenfeld Bf Ehrenfeld,,192715,50.951527,6.91727,1,
Köln Hbf,,398004,50.94303,6.958727,1,
Köln Hbf,398004,512751,50.94303,6.958729,,
Köln Messe/Deutz,575507,631975,50.940872,6.975001,,
Köln Messe/Deutz Bf,,575507,50.940876,6.974996,1,
Köln Messe/Deutz Gl.11-12,575507,229439,50.941723,6.974067,,
Köln Süd Bf,,216962,50.9273,6.938048,1,
Köln Süd Bf,216962,410730,50.9273,6.938048,,
Köln-Ehrenfeld,192715,219390,50.951534,6.917276,,
Köln/Bonn Flughafen,106138,419227,50.878902,7.119302,,
Königs Wusterhausen,120503,285782,52.29666,13.63135,,1
Köthen,,280494,51.75193,11.989358,1,
Köthen,280494,108725,51.75193,11.989358,,
Lahr(Schwarzw),,335885,48.340958,7.835572,1,
Lahr(Schwarzw),335885,160717,48.340958,7.835572,,
Lancut,,171604,50.08143,22.227507,1,
Lancut,171604,390721,50.08143,22.227507,,
Landeck-Zams,,410928,47.148243,10.578392,1,
Landeck-Zams,410928,115518,47.148243,10.578392,,
Landquart,,544190,46.96744,9.554045,1,
Landquart,544190,152591,46.96744,9.554045,,
Landstuhl,148760,351360,49.416286,7.565931,,
"Landstuhl, Bahnhof",,148760,49.416332,7.566159,1,
Langen am Arlberg,,238152,47.13172,10.120375,1,
Langen am Arlberg,238152,355378,47.13172,10.120375,,
Langenhagen Bahnhof Mitte,,202813,52.44028,9.726024,1,
Langenhagen Mitte,202813,84486,52.440277,9.725427,,
Leer(Ostfriesl),,92630,53.23141,7.465229,1,
Leer(Ostfriesl),92630,8255,53.231438,7.46537,,
Legnica,,536975,51.21385,16.168922,1,
Legnica,536975,398573,51.21385,16.168922,,
Lehrte,,195065,52.37663,9.974031,1,
Lehrte,195065,41033,52.37672,9.974599,,
Leipzig Hbf,,48698,51.34547,12.382064,1,
Leipzig Hbf,48698,237597,51.34547,12.382064,,
Leipzig/Halle Flughafen,,242419,51.42334,12.223426,1,
Leipzig/Halle Flughafen,242419,377899,51.42334,12.223426,,
Lennestadt-Altenhundem,500670,602868,51.10412,8.071475,,
Lennestadt-Altenhundem Bf,,500670,51.10413,8.071516,1,
Lennestadt-Grevenbrück,459654,31629,51.14178,8.017977,,
Lennestadt-Grevenbrück Bf,,459654,51.141777,8.017976,1,
Leoben Hbf,,273366,47.386604,15.089603,1,
Leoben Hbf,273366,442927,47.386604,15.089603,,
Lesce-Bled,,149344,46.360416,14.157971,1,
Lesce-Bled,149344,201749,46.360416,14.157971,,
Letmathe,640590,297100,51.36284,7.618397,,
Lichtenfels,,301320,50.146454,11.059474,1,
Lichtenfels,301320,390777,50.146454,11.059472,,
Liestal,,50683,47.484463,7.731367,1,
Liestal,50683,650708,47.484463,7.731367,,
Liezen,,552698,47.56271,14.241886,1,
Liezen,552698,598888,47.56271,14.241886,,
Limburg (Lahn) Süd (ICE),,605843,50.38191,8.095532,1,
Limburg Süd,605843,365359,50.3825,8.096112,,
Lindau-Reutin,,392353,47.552383,9.703287,1,
Lindau-Reutin,392353,181486,47.552383,9.703292,,
Lingen(Ems),148979,633182,52.519867,7.321731,,
"Lingen, Bahnhof",,148979,52.51964,7.32127,1,
Linz Hbf,,559835,48.29018,14.292131,1,
Linz Hbf,559835,178485,48.29018,14.292131,,
Lippstadt,646194,126215,51.67069,8.348785,,
"Lippstadt, Bustreff Bahnhof",,646194,51.67069,8.348781,1,
Liège-Guillemins,,210460,50.62436,5.566483,1,
Liège-Guillemins,210460,188165,50.62436,5.566483,,
Ljubljana,,451112,46.05869,14.512937,1,
Ljubljana,451112,203974,46.05869,14.512937,,
Lubin,,632241,51.39612,16.193586,1,
Lubin,632241,393985,51.39612,16.193586,,
Ludwigsburg,,124649,48.892082,9.185229,1,
Ludwigsburg,124649,91240,48.89186,9.18542,,
Ludwigshafen(Rh)Hbf,477141,498542,49.47653,8.433042,,
"Ludwigshafen, Hauptbahnhof",,477141,49.476994,8.433321,1,
Ludwigsstadt,,328919,50.486584,11.382993,1,
Ludwigsstadt,328919,671806,50.486584,11.382989,,
Lugano,,615440,46.0055,8.946995,1,
Lugano,615440,344691,46.0055,8.946995,,
Lübben(Spreewald),558056,103903,51.939842,13.877132,,1
Lübben(Spreewald),558056,670940,51.93978,13.877006,,2
"Lübben, Bahnhof",,558056,51.939842,13.877383,1,
Lübbenau(Spreewald),150648,340329,51.862095,13.961176,,1
Lübbenau(Spreewald),150648,470336,51.862026,13.961095,,2
"Lübbenau, Bahnhof",,150648,51.862114,13.962173,1,
Lübeck Hbf,,330200,53.867214,10.668884,1,
Lübeck Hbf,330200,294183,53.8676,10.668868,,
Lüneburg,,639056,53.249966,10.419999,1,
Lüneburg,639056,8192,53.24966,10.419892,,
MG Hbf /Europaplatz,,669301,51.196583,6.446113,1,
MG Rheydt Hbf,,314145,51.163162,6.441055,1,
Maasbüll(b Niebüll),,236584,54.754414,8.812732,1,
Maasbüll(b Niebüll),236584,497148,54.754414,8.812732,,
Magdeburg Hbf,,238662,52.130512,11.626963,1,
Magdeburg Hbf,238662,165429,52.13086,11.62732,,4
Magdeburg Hbf,238662,227887,52.13096,11.626377,,7
Magdeburg Hbf,238662,38690,52.130527,11.626775,,
Magdeburg Hbf,238662,424816,52.13093,11.626492,,6
Magdeburg Hbf,238662,536392,52.130836,11.627582,,2
Magdeburg Hbf,238662,599465,52.130974,11.626173,,8
Magdeburg Hbf,238662,621284,52.130844,11.627451,,3
Magdeburg Hbf,238662,69861,52.13088,11.627205,,5
Mainz Hbf,205321,404928,50.001118,8.25872,,
"Mainz, Hauptbahnhof",,205321,50.00145,8.258419,1,
Mallnitz-Obervellach,,616191,46.981213,13.176498,1,
Mallnitz-Obervellach,616191,551434,46.981213,13.176498,,
Mannheim Hbf,472516,133264,49.479355,8.468921,,
"Mannheim, Hauptbahnhof",,472516,49.479496,8.469366,1,
Marburg Hauptbahnhof,,569881,50.819263,8.774011,1,
Marburg(Lahn),569881,92194,50.81927,8.775014,,
Marienhafe,599867,192343,53.519238,7.27436,,
Marienhafe Bahnhof,,599867,53.519897,7.273198,1,
Memmingen,,644630,47.985584,10.18685,1,
Memmingen,644630,603612,47.98558,10.186853,,
Meppen,85723,110137,52.696022,7.298015,,
"Meppen, Bahnhof",,85723,52.69565,7.298111,1,
Miechow,,399458,50.35442,20.011295,1,
Miechow,399458,655175,50.35442,20.011295,,
Milano Centrale,,120966,45.48714,9.204824,1,
Milano Centrale,120966,574637,45.48714,9.204824,,
"Minden, Kaiserstraße",,144620,52.289364,8.927862,1,
"Minden, Kaiserstraße",144620,555315,52.289368,8.927862,,
Mittenwald,,395362,47.44003,11.265709,1,
Mittenwald,395362,243805,47.44003,11.265705,,
Mittenwald (Gr),,231996,47.39807,11.267443,1,
Mittenwald(Gr),231996,590632,47.39807,11.267441,,
Montabaur,674577,308361,50.444836,7.825333,,
Montabaur Bf,,674577,50.44483,7.825323,1,
Mosonmagyarovar,,218663,47.850357,17.266424,1,
Mosonmagyarovar,218663,446607,47.850357,17.266424,,
Murnau,,301488,47.682266,11.192631,1,
Murnau,301488,553405,47.682266,11.192628,,
Mönchengladbach Hbf,669301,117749,51.196583,6.446111,,
Mühlacker,316127,618214,48.953194,8.846101,,
Mühlacker Bahnhof,,316127,48.95299,8.846079,1,
Mülheim Hauptbahnhof,,54661,51.430553,6.886431,1,
Mülheim(Ruhr)Hbf,54661,115322,51.431343,6.88651,,
Müllheim (Baden) Bahnhof,,413558,47.809597,7.599487,1,
Müllheim im Markgräflerland,413558,48915,47.809742,7.599332,,
München Hbf,,484473,48.14029,11.559602,1,
München Hbf,484473,602539,48.140232,11.558335,,
München Hbf Gl.27-36,484473,245887,48.14153,11.556708,,
München Hbf Gl.5-10,484473,102443,48.13993,11.554814,,
München Ost,295420,680208,48.12744,11.604971,,
München-Pasing,411278,537834,48.149853,11.461872,,
Münster Hauptbahnhof,,369808,51.9567,7.63444,1,
Münster(Westf)Hbf,369808,677301,51.956566,7.635715,,
Nagymaros-Visegrad,,675968,47.790894,18.9588,1,
Nagymaros-Visegrad,675968,292618,47.790894,18.9588,,
Naumburg(Saale)Hbf,,399675,51.16307,11.796984,1,
Naumburg(Saale)Hbf,399675,583759,51.16307,11.796984,,
Neu-Ulm,166767,192314,48.393494,10.005766,,
Neu-Ulm Bahnhof,,166767,48.39346,10.004789,1,
Neumarkt am Wallersee,,603336,47.95532,13.225574,1,
Neumarkt am Wallersee,603336,638885,47.95532,13.225574,,
Neumünster,,653555,54.07566,9.979757,1,
Neumünster,653555,226047,54.075672,9.979839,,
Neuss Hauptbahnhof,,95605,51.203526,6.683106,1,
Neuss Hbf,95605,565953,51.20435,6.684527,,
Neustadt(Weinstr)Hbf,603526,373674,49.349552,8.140757,,
"Neustadt, Hauptbahnhof",,603526,49.35004,8.139985,1,
Neustrelitz Hauptbahnhof,,576781,53.359474,13.07435,1,
Neustrelitz Hbf,576781,475799,53.359257,13.074603,,
Niebüll,,31790,54.78956,8.834768,1,
Niebüll,31790,182525,54.789566,8.834805,,
Niebüll,31790,328709,54.789547,8.834721,,
Niebüll,31790,568999,54.78953,8.834595,,
Niebüll neg,,554924,54.78955,8.832959,1,
Niebüll neg,554924,134891,54.78955,8.832959,,
Nienburg(Weser),,612589,52.645344,9.217862,1,
Nienburg(Weser),612589,17522,52.645363,9.2179,,
Norddeich,170054,262255,53.62158,7.160824,,
Norddeich Mole,617163,573329,53.62432,7.158739,,
Norddeich(Norden),,170054,53.62152,7.160884,1,
Norddeich(Norden) Mole,,617163,53.62432,7.158739,1,
Norden,59952,507750,53.588104,7.219352,,
Norden(Ostfriesl),,59952,53.588013,7.219321,1,
Nove Zamky,,502762,47.995003,18.173956,1,
Nove Zamky,502762,542276,47.995003,18.173956,,
Nördlingen,,411210,48.85084,10.497865,1,
Nördlingen,411210,140118,48.85084,10.497863,,
Nürnberg Hbf,,563321,49.445614,11.082992,1,
Nürnberg Hbf,563321,362669,49.445618,11.082989,,
Oberhausen Hbf,,195847,51.474,6.853346,1,
Oberhausen Hbf,195847,437421,51.474876,6.851588,,
Oberndorf (Neckar) Bahnhof,,496255,48.29559,8.575291,1,
Oberndorf(Neckar),496255,396949,48.29567,8.575514,,
Oberstdorf,,459792,47.411034,10.278092,1,
Oberstdorf,459792,7996,47.411034,10.278097,,
Odense st,,407964,55.401775,10.386005,1,
Odense st,407964,502285,55.401775,10.386005,,
Offenburg,166629,297278,48.476475,7.946723,,
Offenburg Bahnhof,,166629,48.476387,7.946587,1,
Oldenburg(Oldb)Hbf,7409,122095,53.144302,8.223277,,7
Oldenburg(Oldb)Hbf,7409,21656,53.1444,8.223331,,8
Oldenburg(Oldb)Hbf,7409,35888,53.14432,8.222713,,
Oldenburg(Oldb)Hbf,7409,478996,53.14383,8.223043,,1
"Oldenburg, Hauptbahnhof",,7409,53.144222,8.222684,1,
Olten,,138952,47.351936,7.9077,1,
Olten,138952,546528,47.351936,7.9077,,
Opoczno Poludnie,,241028,51.358517,20.231709,1,
Opoczno Poludnie,241028,102558,51.358517,20.231709,,
Opole Glowne,,151053,50.661514,17.925863,1,
Opole Glowne,151053,293804,50.661514,17.925863,,
Oranienburg,281857,116346,52.754093,13.249336,,20
Oranienburg,281857,385671,52.75408,13.249215,,28
Osnabrück Hbf,,228662,52.27313,8.060825,1,
Osnabrück Hbf,228662,392217,52.27351,8.059799,,11
Osnabrück Hbf,228662,421488,52.272697,8.061522,,3
Osnabrück Hbf,228662,479698,52.273598,8.059918,,12
Osnabrück Hbf,228662,652793,52.272747,8.061333,,2
Ostbahnhof,,295420,48.12815,11.604545,1,
Ostrava hl.n.,,131160,49.852085,18.267262,1,
Ostrava hl.n.,131160,260705,49.852085,18.267262,,
Ostseebad Binz,67969,665592,54.40482,13.600507,,
Oswiecim,,466191,50.041504,19.199724,1,
Oswiecim,466191,121147,50.041504,19.199724,,
Padborg st,,476773,54.82425,9.358803,1,
Padborg st,476773,39310,54.82425,9.358803,,
Paderborn Hbf,,667698,51.71298,8.740509,1,
Paderborn Hbf,667698,401529,51.71298,8.740505,,
Padova,,77074,45.417824,11.88062,1,
Padova,77074,524168,45.417824,11.88062,,
Papenburg(Ems),671630,421108,53.089706,7.386708,,
"Papenburg, Bahnhof",,671630,53.090424,7.388122,1,
Pardubice hl.n.,,134672,50.03174,15.756211,1,
Pardubice hl.n.,134672,406434,50.03174,15.756211,,
Paris Est,,615680,48.876976,2.35912,1,
Paris Est,615680,300704,48.876976,2.35912,,
Pasewalk,,625507,53.515038,13.989293,1,
Pasewalk,625507,599255,53.515354,13.988875,,
Pasing,,411278,48.149143,11.460697,1,
Passau Hbf,,421028,48.57363,13.45078,1,
Passau Hbf,421028,258673,48.57363,13.450776,,
Peine,428617,30034,52.318943,10.232145,,
"Peine, Bahnhof",,428617,52.318928,10.232422,1,
Pforzheim Hauptbahnhof,,37748,48.89365,8.703453,1,
Pforzheim Hbf,37748,545061,48.894154,8.703099,,
Plattling,,368984,48.77962,12.863938,1,
Plattling,368984,408667,48.779617,12.86394,,
"Plett., Bahnhof",,442870,51.231934,7.86891,1,
Plettenberg,442870,333754,51.23193,7.868913,,
Plochingen,,11221,48.71294,9.411299,1,
Plochingen,11221,434663,48.71308,9.41081,,
Potsdam Hbf,621090,52869,52.391666,13.066749,,3
Poznan Glowny,,312757,52.401993,16.91087,1,
Poznan Glowny,312757,56839,52.401993,16.91087,,
Praha hl.n.,,435034,50.08306,14.436039,1,
Praha hl.n.,435034,261287,50.08306,14.436039,,
Praha-Holesovice,,539444,50.110214,14.440013,1,
Praha-Holesovice,539444,638067,50.110214,14.440013,,
Prenzlau,108763,349032,53.32162,13.86654,,2
Prenzlau,108763,619706,53.321636,13.866409,,1
"Prenzlau, Bahnhof",,108763,53.321613,13.866558,1,
Prien am Chiemsee,,69783,47.8547,12.34685,1,
Prien am Chiemsee,69783,106009,47.855515,12.346615,,
Przemysl Glowny,,15078,49.78366,22.776363,1,
Przemysl Glowny,15078,251794,49.78366,22.776363,,
Przemysl Zasanie,,6447,49.79363,22.774115,1,
Przemysl Zasanie,6447,484198,49.79363,22.774115,,
Przeworsk,,260446,50.067215,22.503357,1,
Przeworsk,260446,567974,50.067215,22.503357,,
Pörtschach am Wörther See,,2992,46.6362,14.146231,1,
Pörtschach am Wörther See,2992,519774,46.6362,14.146231,,
RV Bahnhof,,379202,47.784554,9.606673,1,
Radolfzell,516637,115691,47.735874,8.968984,,
Radolfzell Bahnhof,,516637,47.735924,8.969031,1,
Radstadt,,524070,47.38424,13.467809,1,
Radstadt,524070,393311,47.38424,13.467809,,
Rankweil,,568276,47.273018,9.637252,1,
Rankweil,568276,187772,47.273018,9.637252,,
Ravensburg,379202,208860,47.78448,9.6061,,
Recklinghausen Hbf,,478197,51.61598,7.201371,1,
Recklinghausen Hbf,478197,166426,51.61636,7.20349,,
Regensburg Hbf,,521417,49.01167,12.099624,1,
Regensburg Hbf,521417,667437,49.011673,12.099617,,
Remagen,39743,431259,50.577003,7.23027,,
Remagen Bf,,39743,50.57721,7.229767,1,
Rheine,656753,380534,52.2763,7.434255,,
"Rheine, Bahnhof",,656753,52.2763,7.43426,1,
Rheinfelden(CH),,95279,47.551212,7.792169,1,
Rheinfelden(CH),95279,299597,47.551212,7.792169,,
Rheydt Hbf,314145,632522,51.16303,6.439564,,
Ribnitz-Damgarten West,,608727,54.23918,12.436968,1,
Ribnitz-Damgarten West,608727,313552,54.239178,12.436965,,
Riesa,599660,318327,51.309654,13.287734,,
Riesa Busbf/Bahnhof,,599660,51.3094,13.288383,1,
Ringsheim/Europa-Park,,334000,48.248672,7.773023,1,
Ringsheim/Europa-Park,334000,552982,48.248726,7.773037,,
Ringsted st,,352209,55.438038,11.786155,1,
Ringsted st,352209,7346,55.438038,11.786155,,
Rosenheim,,225415,47.85067,12.118747,1,
Rosenheim,225415,296765,47.850018,12.119202,,
Rostock Hauptbahnhof,,621923,54.07818,12.130724,1,
Rostock Hbf,621923,305516,54.078247,12.131079,,
Rotterdam Centraal,,534239,51.9248,4.468769,1,
Rotterdam Centraal,534239,499655,51.9248,4.468769,,
Rottweil,577612,24868,48.165302,8.639295,,
Rottweil Bahnhof,,577612,48.165253,8.640661,1,
Rovereto,,678308,45.891174,11.034067,1,
Rovereto,678308,280624,45.89096,11.033601,,
Rudolstadt (Thüringen),,534176,50.718,11.339156,1,
Rudolstadt(Thür),534176,49750,50.71793,11.338899,,
Rzepin,,24539,52.350224,14.815073,1,
Rzepin,24539,500502,52.350224,14.815073,,
Rzeszow Glowny,,240804,50.043114,22.006798,1,
Rzeszow Glowny,240804,184080,50.043114,22.006798,,
S Bernau Bhf,,481520,52.675686,13.592695,1,
S Charlottenburg Bhf (Berlin),,586006,52.50473,13.303862,1,
S Königs Wusterhausen Bhf,,120503,52.296963,13.631305,1,
S Königs Wusterhausen Bhf,120503,209287,52.296642,13.631479,,
S Oranienburg Bhf,,281857,52.754486,13.248311,1,
S Ostbahnhof (Berlin),,160335,52.51033,13.435086,1,
S Ostkreuz Bhf (Berlin),,32005,52.503113,13.469221,1,
S Potsdam Hauptbahnhof,,621090,52.391445,13.067157,1,
S Spandau Bhf (Berlin),,68468,52.534798,13.197477,1,
S Wannsee Bhf (Berlin),,672805,52.421726,13.178932,1,
S+U Berlin Hauptbahnhof,,648024,52.525604,13.369075,1,
S+U Gesundbrunnen Bhf (Berlin),,384600,52.548637,13.388372,1,
S+U Lichtenberg Bhf (Berlin),,352896,52.510674,13.498359,1,
S+U Zoologischer Garten Bhf (Berlin),,588307,52.50692,13.332707,1,
Saalfeld (Saale),,265031,50.65049,11.374546,1,
Saalfeld(Saale),265031,557681,50.650272,11.374583,,
Saarbrücken Hbf,,681600,49.24107,6.99102,1,
Saarbrücken Hbf,681600,117614,49.241337,6.991009,,12
Saarbrücken Hbf,681600,155746,49.241085,6.990951,,3
Saarbrücken Hbf,681600,266717,49.241283,6.991011,,5
Saarbrücken Hbf,681600,547665,49.24148,6.991045,,14
Saarbrücken Hbf,681600,576395,49.241066,6.991021,,
Salzburg Hbf,,573293,47.81305,13.04582,1,
Salzburg Hbf,573293,550918,47.81305,13.04582,,
Salzburg Süd,,504124,47.770226,13.078491,1,
Salzburg Süd,504124,178142,47.770226,13.078491,,
Salzwedel,,438129,52.858112,11.162035,1,
Salzwedel,438129,13572,52.858112,11.162035,,
Sargans,,416189,47.044823,9.44626,1,
Sargans,416189,346380,47.044823,9.44626,,
Schaffhausen,,183405,47.69828,8.632756,1,
Schaffhausen,183405,112728,47.69828,8.632756,,
Schladming,,483700,47.393826,13.678151,1,
Schladming,483700,565288,47.393826,13.678151,,
Schleswig,,311995,54.499516,9.538149,1,
Schleswig,311995,441746,54.49946,9.53814,,
Schorndorf,,106824,48.80694,9.52569,1,
Schorndorf,106824,63199,48.80715,9.52631,,
Schwarzach-St.Veit,,671079,47.318535,13.154464,1,
Schwarzach-St.Veit,671079,63548,47.318535,13.154464,,
Schwäbisch Gmünd,606450,43784,48.80101,9.787795,,
Schärding,,346393,48.46372,13.442511,1,
Schärding,346393,398988,48.46372,13.442511,,
Schöna(Gr),,426406,50.860054,14.222133,1,
Schöna(Gr),426406,632730,50.860054,14.222133,,
Seefeld in Tirol,,569409,47.32873,11.189483,1,
Seefeld in Tirol,569409,10712,47.32873,11.189483,,
Selzthal,,522476,47.550243,14.312841,1,
Selzthal,522476,314399,47.550243,14.312841,,
Sevnica,,217579,46.009678,15.301231,1,
Sevnica,217579,268356,46.009678,15.301231,,
Siegburg Bf,,343,50.793907,7.203024,1,
Siegburg/Bonn,343,154577,50.793915,7.203026,,
Siegen Hbf,,4119,50.87594,8.016512,1,
Siegen Hbf,4119,417675,50.87594,8.016508,,
Siegen-Weidenau,334446,535279,50.895966,8.029842,,
Siegen-Weidenau Bf,,334446,50.895966,8.029843,1,
Singen (Htw) Bahnhof,,584848,47.75903,8.841408,1,
Singen(Hohentwiel),584848,128073,47.75888,8.841269,,
Skawina,,238691,49.977108,19.821957,1,
Skawina,238691,473328,49.977108,19.821957,,
Soest,41793,411084,51.57842,8.104589,,
"Soest, Bahnhof",,41793,51.57842,8.104592,1,
Solingen Hbf,,202384,51.16073,7.003688,1,
Solingen Hbf,202384,280631,51.160767,7.004187,,
Sonthofen,,515778,47.51324,10.272343,1,
Sonthofen,515778,151239,47.513283,10.272093,,
Sopot,,445640,54.440166,18.562323,1,
Sopot,445640,63923,54.440166,18.562323,,
Spaichingen,642884,279756,48.06899,8.740147,,
Spaichingen Bahnhof,,642884,48.06909,8.74094,1,
Spiez,,136812,46.686398,7.680103,1,
Spiez,136812,241765,46.686398,7.680103,,
Spittal-Millstättersee,,234000,46.7957,13.487416,1,
Spittal-Millstättersee,234000,37477,46.7957,13.487416,,
St Georgen(Schwarzw),300582,49281,48.123814,8.341955,,
St. Anton am Arlberg,,421638,47.12733,10.267088,1,
St. Anton am Arlberg,421638,39603,47.12733,10.267088,,
St. Gallen(CH),,262638,47.42318,9.369897,1,
St. Gallen(CH),262638,218164,47.42318,9.369897,,
St. Georgen (Schwarzw) Bahnhof,,300582,48.123844,8.342133,1,
St. Johann im Pongau,,618787,47.348377,13.194961,1,
St. Johann im Pongau,618787,646738,47.348377,13.194961,,
St. Margrethen SG,,52137,47.453217,9.638262,1,
St. Margrethen SG,52137,631080,47.453217,9.638262,,
St. Valentin,,367655,48.179146,14.521846,1,
St. Valentin,367655,582192,48.179146,14.521846,,
St.Michael in Obersteiermark,,647073,47.346622,15.009187,1,
St.Michael in Obersteiermark,647073,407182,47.346622,15.009187,,
St.Pölten Hbf,,233682,48.208275,15.624683,1,
St.Pölten Hbf,233682,306837,48.208275,15.624683,,
Stadt Rottenmann,,388045,47.52723,14.367174,1,
Stadt Rottenmann,388045,585469,47.52723,14.367174,,
Stadtroda,,3673,50.86817,11.723213,1,
Stadtroda,3673,585999,50.868217,11.722792,,
Stainach-Irdning,,77977,47.529194,14.106753,1,
Stainach-Irdning,77977,45579,47.529194,14.106753,,
Stein-Säckingen,,327809,47.541607,7.948843,1,
Stein-Säckingen,327809,382467,47.541607,7.948843,,
Stendal Hbf,,505305,52.594723,11.854412,1,
Stendal Hbf,505305,152275,52.594723,11.855409,,
Stendal Hbf,505305,310720,52.594837,11.855358,,2
Stendal Hbf,505305,520747,52.59494,11.85532,,1
Stendal Hbf,505305,526919,52.594784,11.855384,,3
Stralsund Hauptbahnhof,,58536,54.309105,13.077773,1,
Stralsund Hbf,58536,654970,54.308624,13.077321,,
Strasbourg,,121737,48.58534,7.734067,1,
Strasbourg,121737,89844,48.58534,7.734067,,
Straubing,,310418,48.877007,12.574114,1,
Straubing,310418,262082,48.87698,12.574094,,
Sturovo,,352692,47.800125,18.67992,1,
Sturovo,352692,127737,47.800125,18.67992,,
Stuttgart Hbf,40629,521024,48.784084,9.181635,,
Stuttgart-Vaihingen,409929,229871,48.72628,9.113226,,
Sulz (Neckar) Bahnhof,,353176,48.367237,8.637724,1,
Sulz(Neckar),353176,313129,48.366486,8.636748,,
Swiebodzin,,456320,52.245144,15.53954,1,
Swiebodzin,456320,332028,52.245144,15.53954,,
Szob,,453913,47.821,18.862057,1,
Szob,453913,136730,47.821,18.862057,,
Szob(Gr),,638279,47.824898,18.844774,1,
Szob(Gr),638279,355175,47.824898,18.844774,,
Tarnow,,318368,50.0054,20.97418,1,
Tarnow,318368,452769,50.0054,20.97418,,
Tatabanya,,277675,47.58493,18.393612,1,
Tatabanya,277675,344192,47.58493,18.393612,,
Tczew,,657064,54.09732,18.790155,1,
Tczew,657064,593062,54.09732,18.790155,,
Thun,,226556,46.754852,7.629606,1,
Thun,226556,48651,46.754852,7.629606,,
Traunstein,,303136,47.86973,12.638802,1,
Traunstein,303136,16666,47.869728,12.638801,,
Trento,,93388,46.07229,11.1189,1,
Trento,93388,288877,46.07229,11.1189,,
Treuchtlingen,,78404,48.96127,10.908162,1,
Treuchtlingen,78404,309786,48.961266,10.908159,,
Treysa,,184869,50.91066,9.185673,1,
Treysa,184869,225234,50.91066,9.185673,,
Tullnerfeld,,456131,48.295273,15.996528,1,
Tullnerfeld,456131,3542,48.295273,15.996528,,
Tuttlingen,195854,125776,47.98058,8.798542,,
Tuttlingen Bahnhof,,195854,47.980335,8.79942,1,
Tutzing,,512838,47.9074,11.273731,1,
Tutzing,512838,108641,47.907143,11.27289,,
Uelzen,,196066,52.96979,10.553017,1,
Uelzen,196066,341356,52.969837,10.55279,,
Ulm Hauptbahnhof,,11137,48.399364,9.984146,1,
Ulm Hbf,11137,233073,48.3994,9.982608,,
Usti nad Labem hl.n.,,61328,50.65956,14.044728,1,
Usti nad Labem hl.n.,61328,293411,50.65956,14.044728,,
Utrecht Centraal,,528420,52.089397,5.109861,1,
Utrecht Centraal,528420,593676,52.089397,5.109861,,
Vac,,189705,47.782726,19.13306,1,
Vac,189705,145540,47.782726,19.13306,,
Vaihingen,,409929,48.72698,9.113912,1,
Vaihingen (E),,237172,48.94815,8.957578,1,
Vaihingen(Enz),237172,315834,48.948116,8.957632,,
Velden am Wörther See,,561449,46.62005,14.044838,1,
Velden am Wörther See,561449,358833,46.62005,14.044838,,
Velgast,,404904,54.277256,12.803149,1,
Velgast,404904,513122,54.277317,12.803137,,
Venezia Mestre,,573060,45.481907,12.231898,1,
Venezia Mestre,573060,148832,45.481907,12.231898,,
Venezia Santa Lucia,,51165,45.441395,12.320459,1,
Venezia Santa Lucia,51165,238345,45.441395,12.320459,,
Venlo,,607165,51.364407,6.171838,1,
Venlo,607165,557073,51.364407,6.171838,,
Venlo(Gr),,430038,51.340893,6.192712,1,
Venlo(Gr),430038,209457,51.340893,6.192712,,
Verden(Aller),,660188,52.920864,9.237906,1,
Verden(Aller),660188,65623,52.92083,9.237933,,
Verona Porta Nuova,,434409,45.428658,10.982739,1,
Verona Porta Nuova,434409,222929,45.428658,10.982739,,
Vicenza,,328953,45.5411,11.540777,1,
Vicenza,328953,486874,45.5411,11.540777,,
Viersen,594040,115075,51.254948,6.403896,,
Viersen Bahnhof,,594040,51.2545,6.404,1,
Villach Hbf,,179280,46.618626,13.848536,1,
Villach Hbf,179280,56511,46.618626,13.848536,,
Villingen Busbahnhof,,432152,48.057804,8.465427,1,
Villingen(Schwarzw),432152,506700,48.05802,8.465261,,
Visp,,320847,46.29403,7.881465,1,
Visp,320847,286457,46.29403,7.881465,,
Vöcklabruck,,541221,48.010067,13.663703,1,
Vöcklabruck,541221,46746,48.010067,13.663703,,
Wabern(Bz Kassel),,582593,51.103134,9.35804,1,
Wabern(Bz Kassel),582593,501434,51.103134,9.35804,,
Wanne-Eickel Hbf,62576,71527,51.531258,7.165783,,
Warburg(Westf),211905,102570,51.492954,9.163845,,
"Warburg, Bahnhof",,211905,51.492954,9.163849,1,
Waren (Müritz) Bahnhof,,421274,53.52151,12.681077,1,
Waren(Müritz),421274,586812,53.52151,12.680678,,
Warszawa Centralna,,510955,52.22886,21.003235,1,
Warszawa Centralna,510955,319405,52.22886,21.003235,,
Warszawa Gdanska,,468783,52.259182,20.99371,1,
Warszawa Gdanska,468783,311696,52.259182,20.99371,,
Warszawa Wschodnia,,573169,52.25155,21.052336,1,
Warszawa Wschodnia,573169,213562,52.25155,21.052336,,
Warszawa Zachodnia,,132376,52.21997,20.965246,1,
Warszawa Zachodnia,132376,202729,52.21997,20.965246,,
Weil am Rhein,331512,491622,47.59361,7.60844,,
Weil am Rhein Bahnhof,,331512,47.593693,7.608739,1,
Weilheim,,266856,47.845108,11.143502,1,
Weilheim(Oberbay),266856,314766,47.845364,11.14286,,
Weimar,,206132,50.991486,11.326463,1,
Weimar,206132,33,50.991486,11.326458,,
Weinheim(Bergstr)Hbf,58507,99190,49.553303,8.665351,,
"Weinheim, Hauptbahnhof",,58507,49.55333,8.665697,1,
Weißenfels,,504268,51.204617,11.970926,1,
Weißenfels,504268,629573,51.204617,11.970926,,
Wels Hbf,,468629,48.166077,14.026569,1,
Wels Hbf,468629,307679,48.166077,14.026569,,
Werdohl,210620,449278,51.259483,7.757544,,
"Werdohl, Bahnhof",,210620,51.259487,7.757545,1,
Werfen,,549973,47.4726,13.195183,1,
Werfen,549973,141414,47.4726,13.195183,,
Westerland(Sylt),327625,400420,54.906853,8.31098,,
Westerland(Sylt) ZOB/Bahnhof,,327625,54.906895,8.310884,1,
Westerstede-Ocholt,,450896,53.20229,7.886531,1,
Westerstede-Ocholt,450896,80420,53.202248,7.886519,,
Wetzlar,452601,6742,50.56563,8.503819,,
Wetzlar Bahnhof,,452601,50.56566,8.504213,1,
Wien Hauptbahnhof,,284458,48.185104,16.377113,1,
Wien Hbf,284458,421402,48.1851,16.377113,,
Wien Meidling,,602763,48.17445,16.333088,1,
Wien Meidling,602763,383172,48.17445,16.333088,,
Wiesbaden Hauptbahnhof,,396806,50.069477,8.244631,1,
Wiesbaden Hbf,396806,466053,50.07079,8.243731,,
Wiesloch-Walldorf,39015,104477,49.29135,8.664146,,
"Wiesloch-Walldorf, Bf",,39015,49.291016,8.664449,1,
Winterthur,,496788,47.500336,8.723821,1,
Winterthur,496788,556097,47.500336,8.723821,,
Witten Hbf,,443056,51.43542,7.330217,1,
Witten Hbf,443056,600300,51.435543,7.329442,,
Wloszczowa Polnoc,,279051,50.85811,19.947002,1,
Wloszczowa Polnoc,279051,239567,50.85811,19.947002,,
Wolfsburg Hbf,269095,110212,52.429497,10.787784,,
"Wolfsburg, Hauptbahnhof",,269095,52.42946,10.78776,1,
Worms Hbf,379101,420729,49.63494,8.356448,,
"Worms, Hauptbahnhof",,379101,49.635113,8.356955,1,
Wroclaw Glowny,,386933,51.09808,17.037088,1,
Wroclaw Glowny,386933,31079,51.09808,17.037088,,
Wuppertal Hbf,,340311,51.25508,7.149323,1,
Wuppertal Hbf,340311,662846,51.254364,7.149543,,
Wörgl Hbf,,604701,47.4918,12.060581,1,
Wörgl Hbf,604701,289362,47.4918,12.060581,,
Würzburg Hbf,,512070,49.801796,9.93578,1,
Würzburg Hbf,512070,151449,49.801796,9.93578,,
Zabrze,,376517,50.30528,18.786947,1,
Zabrze,376517,212450,50.30528,18.786947,,
Zagreb Glavni kolodvor,,275183,45.80444,15.978705,1,
Zagreb Glavni kolodvor,275183,478705,45.80444,15.978705,,
Zapresic,,470743,45.844494,15.813187,1,
Zapresic,470743,468863,45.844494,15.813187,,
Zbaszynek,,186857,52.242508,15.818092,1,
Zbaszynek,186857,598670,52.242508,15.818092,,
Zebrzydowice,,219000,49.87049,18.623697,1,
Zebrzydowice,219000,237877,49.87049,18.623697,,
Zebrzydowice(Gr),,332276,49.884163,18.57093,1,
Zebrzydowice(Gr),332276,646570,49.884163,18.57093,,
Zidani Most,,396396,46.085587,15.170324,1,
Zidani Most,396396,28096,46.085587,15.170324,,
Zielona Gora Glowna,,5124,51.947437,15.513709,1,
Zielona Gora Glowna,5124,200928,51.947437,15.513709,,
Zürich Flughafen,,487624,47.450386,8.562402,1,
Zürich Flughafen,487624,25525,47.450386,8.562402,,
Zürich HB,,572071,47.378178,8.540212,1,
Zürich HB,572071,521828,47.378178,8.540212,,
Züssow,524173,589123,53.97388,13.548191,,
Züssow Bahnhof,,524173,53.97299,13.549442,1,
Ötztal,,475129,47.238483,10.859114,1,
Ötztal,475129,582270,47.238483,10.859114,,
